{
  "bases": [
    {
      "v1": "db595b71c0e6495d9e70df2ffdf2081c.16",
      "v2": "73033b673f3647d88509e4ef0a2f0d7e.16",
      "v3": "e107b89490e44eb298eaf63f991c09b3.16"
    },
    {
      "v1": "db595b71c0e6495d9e70df2ffdf2081c.16",
      "v2": "e107b89490e44eb298eaf63f991c09b3.16",
      "v3": "0cb03224584e4a6e9cc36d3165e285b8.16"
    }
  ],
  "points": [
    {
      "id": "0b9509d2deaa4c51b22bf444c94c9196.16",
      "title": "Вечная Память",
      "latlng": {
        "lat": 59.947539,
        "lng": 30.433923
      }
    },
    {
      "id": "4b051121a29847caa73581a527e19c28.16",
      "title": "Вечная ПАМЯТЬ Героическим Защитникам Ленинграда 1941-1943 (12/15)",
      "latlng": {
        "lat": 59.949715,
        "lng": 30.439174
      }
    },
    {
      "id": "b69f5d8680014968805b3d1504099c11.16",
      "title": "Вечная ПАМЯТЬ Героическим Защитникам Ленинграда 1941-1943 (3/15)",
      "latlng": {
        "lat": 59.949226,
        "lng": 30.440612
      }
    },
    {
      "id": "27aec63885034563bdfb3a4ebc889cc1.16",
      "title": "Вечная ПАМЯТЬ Героическим Защитникам Ленинграда 1941-1943 (11/15)",
      "latlng": {
        "lat": 59.950123,
        "lng": 30.439052
      }
    },
    {
      "id": "30ca5f0ea0114c4791388675985c4611.16",
      "title": "Вечная ПАМЯТЬ Героическим Защитникам Ленинграда 1941-1943 (4/15)",
      "latlng": {
        "lat": 59.948847,
        "lng": 30.440676
      }
    },
    {
      "id": "db595b71c0e6495d9e70df2ffdf2081c.16",
      "title": "Пухлощекий Ангел",
      "latlng": {
        "lat": 59.951035,
        "lng": 30.439552
      }
    },
    {
      "id": "b545f404a64c44f18077705addc40ab4.16",
      "title": "Борис Ямпольский",
      "latlng": {
        "lat": 59.950811,
        "lng": 30.441687
      }
    },
    {
      "id": "db2ce483edee4cf4825e044bd7d4d3dd.16",
      "title": "Вечная ПАМЯТЬ Героическим Защитникам Ленинграда 1941-1943",
      "latlng": {
        "lat": 59.948572,
        "lng": 30.439127
      }
    },
    {
      "id": "a590fe9b6bf543f19c9d6153a2ff4ef9.16",
      "title": "Вечная ПАМЯТЬ Героическим Защитникам Ленинграда 1941-1943 (9/15)",
      "latlng": {
        "lat": 59.948857,
        "lng": 30.439902
      }
    },
    {
      "id": "988cd82090a44ad682bd05fcd8f3fbfb.16",
      "title": "Валерия Николаева",
      "latlng": {
        "lat": 59.950573,
        "lng": 30.441702
      }
    },
    {
      "id": "99cfe620c296413bb59e0c581205697c.16",
      "title": "Вечная ПАМЯТЬ Героическим Защитникам Ленинграда 1941-1943 (13/15)",
      "latlng": {
        "lat": 59.94923,
        "lng": 30.439108
      }
    },
    {
      "id": "26678005721d47628b0a868a3b391b00.16",
      "title": "Вечная ПАМЯТЬ Героическим Защитникам Ленинграда 1941-1943 (1/15)",
      "latlng": {
        "lat": 59.950136,
        "lng": 30.4406
      }
    },
    {
      "id": "bdbcda202e8e4536a413140015fe3a23.16",
      "title": "Памятник Героическим Защитникам Ленинграда 1941-1943",
      "latlng": {
        "lat": 59.950513,
        "lng": 30.439421
      }
    },
    {
      "id": "e8aed0b0415b47e68cd011210c449b2d.16",
      "title": "Вечная ПАМЯТЬ Героическим Защитникам Ленинграда 1941-1943 (7/15)",
      "latlng": {
        "lat": 59.949743,
        "lng": 30.439859
      }
    },
    {
      "id": "4522c3a840fd4d959fa3a6fef0e84fcd.16",
      "title": "Вечная ПАМЯТЬ Героическим Защитникам Ленинграда 1941-1943 (2/15)",
      "latlng": {
        "lat": 59.949769,
        "lng": 30.44059
      }
    },
    {
      "id": "e107b89490e44eb298eaf63f991c09b3.16",
      "title": "Вечная ПАМЯТЬ Героическим Защитникам Ленинграда 1941-1943 (5/15)",
      "latlng": {
        "lat": 59.948607,
        "lng": 30.440652
      }
    },
    {
      "id": "34f8e2cc618a4e8fa2ec0a90c1af7028.16",
      "title": "Большая Охта",
      "latlng": {
        "lat": 59.953256,
        "lng": 30.441882
      }
    },
    {
      "id": "0cb03224584e4a6e9cc36d3165e285b8.16",
      "title": "Юрий Пашкевич",
      "latlng": {
        "lat": 59.950908,
        "lng": 30.442242
      }
    },
    {
      "id": "73033b673f3647d88509e4ef0a2f0d7e.16",
      "title": "HOBA",
      "latlng": {
        "lat": 59.947953,
        "lng": 30.437139
      }
    },
    {
      "id": "53fd53a4dffb4193aa9dd899105dc401.16",
      "title": "Вечная ПАМЯТЬ Героическим Защитникам Ленинграда 1941-1943 (8/15)",
      "latlng": {
        "lat": 59.949237,
        "lng": 30.439892
      }
    },
    {
      "id": "1f3204a7d36c403095189d2568f46539.16",
      "title": "Вечная ПАМЯТЬ Героическим Защитникам Ленинграда 1941-1943 (10/15)",
      "latlng": {
        "lat": 59.948563,
        "lng": 30.43993
      }
    },
    {
      "id": "acd48c147e0e4cf29ccd5fd809a01b01.16",
      "title": "Вечная ПАМЯТЬ Героическим Защитникам Ленинграда 1941-1943 (14/15)",
      "latlng": {
        "lat": 59.94884,
        "lng": 30.439117
      }
    },
    {
      "id": "886d5ac874c24d2a8063b822299154c9.16",
      "title": "Вечная ПАМЯТЬ Героическим Защитникам Ленинграда 1941-1943 (6/15)",
      "latlng": {
        "lat": 59.950132,
        "lng": 30.439853
      }
    },
    {
      "id": "2cf4c7ea6f6142bc806d0ec52f468f4f.16",
      "title": "Детская площадка",
      "latlng": {
        "lat": 59.953431,
        "lng": 30.428961
      }
    }
  ],
  "links": [
    /*{
      "name": "Пухлощекий Ангел - HOBA",
      "from": "db595b71c0e6495d9e70df2ffdf2081c.16",
      "to": "73033b673f3647d88509e4ef0a2f0d7e.16",
      "isReverse": false
    },
    {
      "name": "HOBA - Вечная ПАМЯТЬ Героическим Защитникам Ленинграда 1941-1943 (5/15)",
      "from": "73033b673f3647d88509e4ef0a2f0d7e.16",
      "to": "e107b89490e44eb298eaf63f991c09b3.16",
      "isReverse": false
    },
    {
      "name": "Вечная ПАМЯТЬ Героическим Защитникам Ленинграда 1941-1943 (5/15) - Пухлощекий Ангел",
      "from": "e107b89490e44eb298eaf63f991c09b3.16",
      "to": "db595b71c0e6495d9e70df2ffdf2081c.16",
      "isReverse": false
    },
    {
      "name": "Пухлощекий Ангел - Вечная ПАМЯТЬ Героическим Защитникам Ленинграда 1941-1943 (5/15)",
      "from": "db595b71c0e6495d9e70df2ffdf2081c.16",
      "to": "e107b89490e44eb298eaf63f991c09b3.16",
      "isReverse": false
    },
    {
      "name": "Вечная ПАМЯТЬ Героическим Защитникам Ленинграда 1941-1943 (5/15) - Юрий Пашкевич",
      "from": "e107b89490e44eb298eaf63f991c09b3.16",
      "to": "0cb03224584e4a6e9cc36d3165e285b8.16",
      "isReverse": false
    },
    {
      "name": "Юрий Пашкевич - Пухлощекий Ангел",
      "from": "0cb03224584e4a6e9cc36d3165e285b8.16",
      "to": "db595b71c0e6495d9e70df2ffdf2081c.16",
      "isReverse": false
    }*/
  ]
}
