{
  "bases": [
    {
      "v1": "b7498001ee914be28d32be555ad2874a.16",
      "v2": "718babf199ac46a98d3e770a1c9547e4.16",
      "v3": "b3fa517a3ee74236ace513367338a855.16"
    }
  ],
  "points": [
    {
      "id": "5c9894790283425bbff5699df2678f3d.16",
      "title": "Федоров",
      "latlng": {
        "lat": 59.990989,
        "lng": 30.392537
      }
    },
    {
      "id": "645295250e054ddeaa8c95b3a350dfe1.16",
      "title": "Яновский",
      "latlng": {
        "lat": 59.990574,
        "lng": 30.396448
      }
    },
    {
      "id": "6ed03c5eff4544469df1f2f6eb61fd60.16",
      "title": "Полухин",
      "latlng": {
        "lat": 59.988498,
        "lng": 30.400568
      }
    },
    {
      "id": "1301d08d825c490d838f05917ab9ebd5.16",
      "title": "Гончаров",
      "latlng": {
        "lat": 59.987497,
        "lng": 30.3902
      }
    },
    {
      "id": "eb1c1dbc100b43c2b2f1bf16cb683400.16",
      "title": "Знатный Крест",
      "latlng": {
        "lat": 59.989945,
        "lng": 30.39491
      }
    },
    {
      "id": "8ecb6c3228324dfb99364c2d4d73ef19.16",
      "title": "Вера Бакун",
      "latlng": {
        "lat": 59.989539,
        "lng": 30.391636
      }
    },
    {
      "id": "5a16685bbd2d402eba138546bf52050f.16",
      "title": "Капитан 1 Ранга",
      "latlng": {
        "lat": 59.989196,
        "lng": 30.396403
      }
    },
    {
      "id": "b5724e1fadee40af9f3d9e84ece312d8.16",
      "title": "Кобзарь-Сукач",
      "latlng": {
        "lat": 59.989605,
        "lng": 30.392296
      }
    },
    {
      "id": "c1ffcbd4d7924bfd8afe15c92fa1e084.16",
      "title": "Шибалов А.Н.",
      "latlng": {
        "lat": 59.990218,
        "lng": 30.399912
      }
    },
    {
      "id": "4ad36f39e1d34fdc99eaa4dc4e1b083b.16",
      "title": "Авиаторы Соболевские",
      "latlng": {
        "lat": 59.988465,
        "lng": 30.38935
      }
    },
    {
      "id": "e7ffbd33bdb44d28b92d074f6a84b3df.16",
      "title": "Монумент Камню",
      "latlng": {
        "lat": 59.988579,
        "lng": 30.401331
      }
    },
    {
      "id": "32ff0492409d47e782567494d67e7dc4.16",
      "title": "Защитникам Ленинграда 7-25",
      "latlng": {
        "lat": 59.988048,
        "lng": 30.396801
      }
    },
    {
      "id": "41041d8e872c4b069b730fddc367bc37.16",
      "title": "Женщина На Черном Камне",
      "latlng": {
        "lat": 59.989053,
        "lng": 30.398141
      }
    },
    {
      "id": "d25b72381bcd48b0bbd20375f5249093.16",
      "title": "Архитектор Эйсмонт",
      "latlng": {
        "lat": 59.991149,
        "lng": 30.389201
      }
    },
    {
      "id": "f3bca6e906ba447d83e944d87f554adf.16",
      "title": "Тюлины",
      "latlng": {
        "lat": 59.990021,
        "lng": 30.392338
      }
    },
    {
      "id": "467b1a2b78b2404bb4bde0298e65b5ad.16",
      "title": "Пржиборо",
      "latlng": {
        "lat": 59.9909,
        "lng": 30.394723
      }
    },
    {
      "id": "f8084512a2944bbe95a81d0e0c2493d6.11",
      "title": "Виктор Цой",
      "latlng": {
        "lat": 59.990311,
        "lng": 30.399366
      }
    },
    {
      "id": "907de104f9814e1d86ad4f84c90bc44e.16",
      "title": "Олимпийский Чемпион",
      "latlng": {
        "lat": 59.988291,
        "lng": 30.401593
      }
    },
    {
      "id": "6728bfa13b4b477188db4e22abeec8e6.16",
      "title": "Советское",
      "latlng": {
        "lat": 59.988756,
        "lng": 30.401117
      }
    },
    {
      "id": "846807c940ba4c76b6a29457dde2e09e.16",
      "title": "Профессор Калашников",
      "latlng": {
        "lat": 59.987612,
        "lng": 30.389886
      }
    },
    {
      "id": "650c32dfe844436b9a170a2555d7edbb.16",
      "title": "Защитникам Ленинграда 20-25",
      "latlng": {
        "lat": 59.988468,
        "lng": 30.396186
      }
    },
    {
      "id": "0e18a10f0cbb4b17b3c3e70e837116a1.16",
      "title": "Лебедева",
      "latlng": {
        "lat": 59.988372,
        "lng": 30.393739
      }
    },
    {
      "id": "107c8e351b0f45c99c420fbf9e14680d.16",
      "title": "Кашкаров",
      "latlng": {
        "lat": 59.988364,
        "lng": 30.398495
      }
    },
    {
      "id": "ab1500c7ce984e69ae8f440ba4ab1bf9.16",
      "title": "Генерал-лейтенант артиллерии Одинцов",
      "latlng": {
        "lat": 59.988667,
        "lng": 30.39107
      }
    },
    {
      "id": "d39365d8356f49ccaa2b129eb23fb8da.16",
      "title": "Генерал Майор Чудов",
      "latlng": {
        "lat": 59.987566,
        "lng": 30.391736
      }
    },
    {
      "id": "0b824f71ff4a46a9b1c7548e24e45d87.16",
      "title": "Михаил Горшенев",
      "latlng": {
        "lat": 59.990175,
        "lng": 30.400478
      }
    },
    {
      "id": "19a0f1624c944275be067bd2365f2939.16",
      "title": "Караевы",
      "latlng": {
        "lat": 59.988704,
        "lng": 30.392753
      }
    },
    {
      "id": "d6618cc519ae4c8e93928af3be7a63fd.16",
      "title": "Обелиск",
      "latlng": {
        "lat": 59.988134,
        "lng": 30.397257
      }
    },
    {
      "id": "8ba2185309cc4b12a4d6612affaf1993.16",
      "title": "Соколов",
      "latlng": {
        "lat": 59.988345,
        "lng": 30.39511
      }
    },
    {
      "id": "0c595f14b6734b628513698a0eee6aa0.16",
      "title": "Пентин",
      "latlng": {
        "lat": 59.988399,
        "lng": 30.399745
      }
    },
    {
      "id": "9b597bf4b4c34036b489316494c1dd3a.16",
      "title": "Ангел Во Плоти",
      "latlng": {
        "lat": 59.988813,
        "lng": 30.397045
      }
    },
    {
      "id": "a2b7ec75841e499c8ad28170f98a4baa.16",
      "title": "Генерал-маршал",
      "latlng": {
        "lat": 59.989228,
        "lng": 30.394857
      }
    },
    {
      "id": "5a1ccf4aab9e411cbaad51ea01f6fa74.16",
      "title": "Колонна",
      "latlng": {
        "lat": 59.990066,
        "lng": 30.395504
      }
    },
    {
      "id": "18386a27682047edbdcea70d392d55d6.16",
      "title": "Доронина",
      "latlng": {
        "lat": 59.989612,
        "lng": 30.39282
      }
    },
    {
      "id": "50c2dca4cfab417a80b68d863d087572.16",
      "title": "Доблестным Воинам",
      "latlng": {
        "lat": 59.9905,
        "lng": 30.394641
      }
    },
    {
      "id": "94ef6ede9b8143c7ac7f7b669fdc2adc.16",
      "title": "Полковой Комиссар Журба",
      "latlng": {
        "lat": 59.988171,
        "lng": 30.390721
      }
    },
    {
      "id": "74216af3caf94c13b7e60d4069e0a84c.16",
      "title": "Отрок Давид",
      "latlng": {
        "lat": 59.987466,
        "lng": 30.391144
      }
    },
    {
      "id": "bcdb7e80c07c4ee290f99a1561defa3e.16",
      "title": "Геночка",
      "latlng": {
        "lat": 59.987511,
        "lng": 30.4002
      }
    },
    {
      "id": "9f0c94eaee064073b99ed83e270a63bb.16",
      "title": "Ваза",
      "latlng": {
        "lat": 59.988555,
        "lng": 30.395547
      }
    },
    {
      "id": "cc562da920cd4845b61290a42cf47c73.16",
      "title": "Памятник Стоящий",
      "latlng": {
        "lat": 59.989557,
        "lng": 30.400998
      }
    },
    {
      "id": "cb0e084d864047fb8577c43e2803f1b5.16",
      "title": "Сашенька",
      "latlng": {
        "lat": 59.987739,
        "lng": 30.391239
      }
    },
    {
      "id": "81ac632c55dc4bb896c3173de0f161ac.16",
      "title": "Полковник Козлов",
      "latlng": {
        "lat": 59.98828,
        "lng": 30.391064
      }
    },
    {
      "id": "dfc74816eb914bc3a41fbc81d202bb81.16",
      "title": "Конструктор Изотов",
      "latlng": {
        "lat": 59.987582,
        "lng": 30.398805
      }
    },
    {
      "id": "96a336b4de89422c91d106fe81935344.16",
      "title": "Мужчина с плащом",
      "latlng": {
        "lat": 59.989509,
        "lng": 30.401883
      }
    },
    {
      "id": "cf166468cd1d4a91b201c7512824b860.16",
      "title": "Памятник Защитникам ",
      "latlng": {
        "lat": 59.987723,
        "lng": 30.388882
      }
    },
    {
      "id": "76d443c6e61b4f4e865ca6216c7af1cc.16",
      "title": "Крест на Волне",
      "latlng": {
        "lat": 59.987187,
        "lng": 30.390604
      }
    },
    {
      "id": "27da7e3a84b1429b9f46c8aa59bb4e2e.16",
      "title": "Защитникам Ленинграда 23-25",
      "latlng": {
        "lat": 59.988666,
        "lng": 30.396207
      }
    },
    {
      "id": "51697bf6e91b40f8938bc0a3ec306d61.16",
      "title": "Могила красивой женщины",
      "latlng": {
        "lat": 59.989252,
        "lng": 30.398716
      }
    },
    {
      "id": "cc1909662d4849a09798d0e4dec1bd42.16",
      "title": "Вечная Память",
      "latlng": {
        "lat": 59.988283,
        "lng": 30.396592
      }
    },
    {
      "id": "bc00871645b24015910294688cd204c9.16",
      "title": "Юдин",
      "latlng": {
        "lat": 59.989014,
        "lng": 30.393061
      }
    },
    {
      "id": "9602eca616d14bea97aa1c669da31a55.16",
      "title": "Капитан Савинский",
      "latlng": {
        "lat": 59.990036,
        "lng": 30.40173
      }
    },
    {
      "id": "9ee2ec58a58848808f05fc774741f8b9.16",
      "title": "Человек со снежной шляпой",
      "latlng": {
        "lat": 59.990689,
        "lng": 30.39742
      }
    },
    {
      "id": "d2b60011e2294331b3467e56bddbd9a6.16",
      "title": "Ангел На Богословском",
      "latlng": {
        "lat": 59.99041,
        "lng": 30.397978
      }
    },
    {
      "id": "3965eb56e4944afdbc33c3d07651a4c2.16",
      "title": "Сошёл",
      "latlng": {
        "lat": 59.989847,
        "lng": 30.398346
      }
    },
    {
      "id": "69d62e6a57844a979b01b4d693bfee44.16",
      "title": "Овсянниковы",
      "latlng": {
        "lat": 59.989036,
        "lng": 30.398512
      }
    },
    {
      "id": "718babf199ac46a98d3e770a1c9547e4.16",
      "title": "Обелиск Памяти Защитникам Ленинграда",
      "latlng": {
        "lat": 59.987235,
        "lng": 30.389585
      }
    },
    {
      "id": "09c5af4fc9784b849e772f16d91fc0dd.16",
      "title": "Боборыкина ",
      "latlng": {
        "lat": 59.989715,
        "lng": 30.400737
      }
    },
    {
      "id": "64b2af3df4d241dc90daba34088527e2.16",
      "title": "Профессор Долгов",
      "latlng": {
        "lat": 59.989318,
        "lng": 30.39312
      }
    },
    {
      "id": "bb5c9f9968f24b86821736ba48a80e69.16",
      "title": "Якорь Маринеско",
      "latlng": {
        "lat": 59.989355,
        "lng": 30.394112
      }
    },
    {
      "id": "4285c597cc1342a5ba29e8455fe93f5c.16",
      "title": "Евгений Мравинский",
      "latlng": {
        "lat": 59.99012,
        "lng": 30.393227
      }
    },
    {
      "id": "f3b4d9f9f02148d09a7b00adee117426.16",
      "title": "Железное Растение",
      "latlng": {
        "lat": 59.989741,
        "lng": 30.401699
      }
    },
    {
      "id": "2c262e98ab8543eab92bc0f8504a2b29.16",
      "title": "Беловы",
      "latlng": {
        "lat": 59.98829,
        "lng": 30.398152
      }
    },
    {
      "id": "bb5c325b94094f9998fc667eca9a7259.16",
      "title": "Памятник Погибшим Воинам",
      "latlng": {
        "lat": 59.991012,
        "lng": 30.395457
      }
    },
    {
      "id": "b7498001ee914be28d32be555ad2874a.16",
      "title": "Огневая Точка 1941-1945",
      "latlng": {
        "lat": 59.99155,
        "lng": 30.394148
      }
    },
    {
      "id": "2c260bb6ccf947a194061d548aac6de5.16",
      "title": "Курсантик",
      "latlng": {
        "lat": 59.98783,
        "lng": 30.400615
      }
    },
    {
      "id": "1b993404be714700b6261d21cbe3c290.16",
      "title": "Надя Абрамова",
      "latlng": {
        "lat": 59.988795,
        "lng": 30.398908
      }
    },
    {
      "id": "ff92e0c4fb6c4174b4bbbadecce18cdd.16",
      "title": "Смагин",
      "latlng": {
        "lat": 59.987572,
        "lng": 30.389288
      }
    },
    {
      "id": "af48a15496e24ebd8fdf9efb63981f54.16",
      "title": "Герой Трашутин",
      "latlng": {
        "lat": 59.990491,
        "lng": 30.398488
      }
    },
    {
      "id": "0f296c3c900948bd99e13b4d0b6d8c72.16",
      "title": "Келль",
      "latlng": {
        "lat": 59.990284,
        "lng": 30.398319
      }
    },
    {
      "id": "ea2258ad98c24c64bc1ed6250e64d0bd.16",
      "title": "Клочко ",
      "latlng": {
        "lat": 59.988965,
        "lng": 30.396514
      }
    },
    {
      "id": "c50ed62b88ff4f63b569c4ee223c0343.16",
      "title": "Курепин",
      "latlng": {
        "lat": 59.987877,
        "lng": 30.399493
      }
    },
    {
      "id": "fc2d6f0c79594021857deafd0a83755e.16",
      "title": "Саввины",
      "latlng": {
        "lat": 59.989599,
        "lng": 30.393524
      }
    },
    {
      "id": "b10c21b033214e2e929aedcebbdb2149.16",
      "title": "Димочка",
      "latlng": {
        "lat": 59.989185,
        "lng": 30.391209
      }
    },
    {
      "id": "ae5a8bf6135d4436b72a1ceec0c34977.16",
      "title": "Тетка На Плите",
      "latlng": {
        "lat": 59.988597,
        "lng": 30.398208
      }
    },
    {
      "id": "7c7b439b6d894384a3a7a81cd2476f39.16",
      "title": "Академик Маслов",
      "latlng": {
        "lat": 59.988519,
        "lng": 30.391344
      }
    },
    {
      "id": "c024424def044defa5e4f87ac93ea2c9.16",
      "title": "Архитектор Васильев",
      "latlng": {
        "lat": 59.990713,
        "lng": 30.396912
      }
    },
    {
      "id": "1ee36a3d0ec24641aa808da931968b2e.16",
      "title": "Белин",
      "latlng": {
        "lat": 59.987729,
        "lng": 30.39978
      }
    },
    {
      "id": "69116f4ee29b4f52ae932a4537c43774.16",
      "title": "Архитектор Шепилевский",
      "latlng": {
        "lat": 59.989003,
        "lng": 30.389659
      }
    },
    {
      "id": "a02e62e7d02641348f8acf0bb46d0dd7.16",
      "title": "Вице-адмирал Кулаков",
      "latlng": {
        "lat": 59.98865,
        "lng": 30.395035
      }
    },
    {
      "id": "b85f3578006242b7b55f611242d4f0de.16",
      "title": "Cuba",
      "latlng": {
        "lat": 59.990593,
        "lng": 30.401546
      }
    },
    {
      "id": "336e749e8b804674ac02072c5e0355a2.16",
      "title": "Шестов",
      "latlng": {
        "lat": 59.988609,
        "lng": 30.39241
      }
    },
    {
      "id": "e65321ebabdc44108872eafafbc62bf1.16",
      "title": "Старая ваза",
      "latlng": {
        "lat": 59.988779,
        "lng": 30.392117
      }
    },
    {
      "id": "826949c7655c4312b42b7ce197dc1e0f.16",
      "title": "Владимир Шифрин",
      "latlng": {
        "lat": 59.989233,
        "lng": 30.389336
      }
    },
    {
      "id": "bb34978caabd491689b67f1c87f3b526.16",
      "title": "Ромочка Комаров",
      "latlng": {
        "lat": 59.988831,
        "lng": 30.393843
      }
    },
    {
      "id": "7517a756511e4f2ba962a51ccd944ce4.16",
      "title": "Мариам Чобанян",
      "latlng": {
        "lat": 59.989049,
        "lng": 30.393863
      }
    },
    {
      "id": "a5ffef3b87794f138e163300d04dd47c.16",
      "title": "Шар",
      "latlng": {
        "lat": 59.98874,
        "lng": 30.39571
      }
    },
    {
      "id": "c343a740929d4170bf9b705a78013192.16",
      "title": "Лиманский",
      "latlng": {
        "lat": 59.990479,
        "lng": 30.400717
      }
    },
    {
      "id": "ba169c91f8ca4b51b307c5edea2e8a37.16",
      "title": "Скульптор",
      "latlng": {
        "lat": 59.988379,
        "lng": 30.394258
      }
    },
    {
      "id": "7f9ef1afa7194fcb89913cc0a4882e5f.16",
      "title": "Профессор Владимиров",
      "latlng": {
        "lat": 59.988552,
        "lng": 30.391717
      }
    },
    {
      "id": "ac4ec814ead947d2a9ddb66c912fd4e6.16",
      "title": "Золотая Звезда",
      "latlng": {
        "lat": 59.991397,
        "lng": 30.393093
      }
    },
    {
      "id": "9edb503dc6124d67a5b2dca0b312d7d1.16",
      "title": "Никто Не Смог Спасти",
      "latlng": {
        "lat": 59.991057,
        "lng": 30.398078
      }
    },
    {
      "id": "73a2b054968946c78c97051b9d77158f.16",
      "title": "Полярник Фролов",
      "latlng": {
        "lat": 59.988856,
        "lng": 30.390552
      }
    },
    {
      "id": "7cea482e5334400d95d00e548d916767.16",
      "title": "Морозов",
      "latlng": {
        "lat": 59.988163,
        "lng": 30.400039
      }
    },
    {
      "id": "e632a7229e664853a8f5813a99dab213.16",
      "title": "Вечная Память",
      "latlng": {
        "lat": 59.988265,
        "lng": 30.395626
      }
    },
    {
      "id": "4826290639034b689f4d6b781e5c9536.16",
      "title": "Иван Жук",
      "latlng": {
        "lat": 59.98947,
        "lng": 30.388201
      }
    },
    {
      "id": "e615b82af4334ae4a28fd1fabdc55972.16",
      "title": "Мемориал Пановой",
      "latlng": {
        "lat": 59.99135,
        "lng": 30.395829
      }
    },
    {
      "id": "14fa00d503ee400f8edb79f5e3cb84d3.16",
      "title": "Сыркин",
      "latlng": {
        "lat": 59.990976,
        "lng": 30.389028
      }
    },
    {
      "id": "0ff35fee31ae4756939a25cd1acf75c2.16",
      "title": "Черный Обелиск",
      "latlng": {
        "lat": 59.989408,
        "lng": 30.401396
      }
    },
    {
      "id": "27392ff5715548aba9e1ea720008bdda.16",
      "title": "Гранитный Ангел",
      "latlng": {
        "lat": 59.990277,
        "lng": 30.398927
      }
    },
    {
      "id": "7069ec0108184646bf6ed9643a9d4e90.16",
      "title": "Женская Голова",
      "latlng": {
        "lat": 59.98867,
        "lng": 30.400058
      }
    },
    {
      "id": "28ff423db67245b59168de4bb9e683be.16",
      "title": "Подполковник Климов",
      "latlng": {
        "lat": 59.990764,
        "lng": 30.391067
      }
    },
    {
      "id": "0e597f1d8c504b4d849500f3c74edcf1.16",
      "title": "Врач Шаталов",
      "latlng": {
        "lat": 59.987536,
        "lng": 30.388762
      }
    },
    {
      "id": "a57d4b952b604326b0e00bac967bd340.16",
      "title": "Гранитный Коготь",
      "latlng": {
        "lat": 59.991107,
        "lng": 30.396344
      }
    },
    {
      "id": "1b2783d699df48179f31e2cea9efe7dd.16",
      "title": "Джентльмен ",
      "latlng": {
        "lat": 59.989743,
        "lng": 30.394843
      }
    },
    {
      "id": "771a80882eaa49ddaf465f7981a1aba7.16",
      "title": "Женская Голова",
      "latlng": {
        "lat": 59.988569,
        "lng": 30.394529
      }
    },
    {
      "id": "0cf99765aa3645c19810c74b637290d5.16",
      "title": "Академик Константинов",
      "latlng": {
        "lat": 59.988103,
        "lng": 30.389913
      }
    },
    {
      "id": "a1566c394e3f480e8fbed981060a74ed.16",
      "title": "Ерофеевы",
      "latlng": {
        "lat": 59.990158,
        "lng": 30.395144
      }
    },
    {
      "id": "bb552c3324de4cffb9c14c3d903804c9.16",
      "title": "Поэт Александр Прокофьев",
      "latlng": {
        "lat": 59.988944,
        "lng": 30.395512
      }
    },
    {
      "id": "870d1968306f43b89bdb17821de7f7a9.16",
      "title": "Иван Иванович",
      "latlng": {
        "lat": 59.989348,
        "lng": 30.400653
      }
    },
    {
      "id": "ebe3d5d692554d01a4d2ec94db7a3214.16",
      "title": "Печальная Женщина",
      "latlng": {
        "lat": 59.989954,
        "lng": 30.402314
      }
    },
    {
      "id": "6b54e2da79a74dfd8b2e910dd5cb1965.16",
      "title": "Комар",
      "latlng": {
        "lat": 59.989866,
        "lng": 30.400037
      }
    },
    {
      "id": "d891b4183d2541f09ffa8282a7b788fe.16",
      "title": "Вержбицкий",
      "latlng": {
        "lat": 59.988796,
        "lng": 30.397568
      }
    },
    {
      "id": "c00f914654fc4091982015f76bb9a10b.16",
      "title": "Родкевич",
      "latlng": {
        "lat": 59.9884,
        "lng": 30.397807
      }
    },
    {
      "id": "02274d47bb9a463a85051d0ca5ca34b4.16",
      "title": "Кавторанг Архипов",
      "latlng": {
        "lat": 59.988515,
        "lng": 30.393195
      }
    },
    {
      "id": "3091632ae57549558bae98641daf05ad.16",
      "title": "Федоров",
      "latlng": {
        "lat": 59.987968,
        "lng": 30.39789
      }
    },
    {
      "id": "b74027505c134345b5b92cafae1cc885.16",
      "title": "Осинцев",
      "latlng": {
        "lat": 59.988317,
        "lng": 30.397321
      }
    },
    {
      "id": "b8697ca2f6c446338aee496af64b8c83.16",
      "title": "Ангел, ломающий палку",
      "latlng": {
        "lat": 59.988175,
        "lng": 30.391465
      }
    },
    {
      "id": "36372f9699e842ee9ab7b695db85f826.16",
      "title": "Ангел",
      "latlng": {
        "lat": 59.990072,
        "lng": 30.399559
      }
    },
    {
      "id": "d7a46a1c8a954a5392fa29550f801f2b.16",
      "title": "Бельский",
      "latlng": {
        "lat": 59.989701,
        "lng": 30.402301
      }
    },
    {
      "id": "5e62993fef284eb9b1b398e2cefe7cc8.16",
      "title": "Профессор Ананьев",
      "latlng": {
        "lat": 59.989949,
        "lng": 30.401047
      }
    },
    {
      "id": "5fa25ae60f50454581c9d65971973e14.16",
      "title": "Поэт Илья Садофьев",
      "latlng": {
        "lat": 59.989419,
        "lng": 30.3952
      }
    },
    {
      "id": "7eac526de444484db89aee7b84118770.16",
      "title": "Памятник Воинам",
      "latlng": {
        "lat": 59.987916,
        "lng": 30.39001
      }
    },
    {
      "id": "27e1eec146594d9fa34f673c55797cf8.16",
      "title": "Тонков",
      "latlng": {
        "lat": 59.987846,
        "lng": 30.389677
      }
    },
    {
      "id": "9d886d9471ee4df48788aa6474fd23a7.16",
      "title": "Профессор Давиденков",
      "latlng": {
        "lat": 59.988403,
        "lng": 30.39192
      }
    },
    {
      "id": "7606ed748d3a4c5fb8b1d45187822e06.16",
      "title": "Контр-адмирал Лунин",
      "latlng": {
        "lat": 59.98955,
        "lng": 30.403289
      }
    },
    {
      "id": "b3fa517a3ee74236ace513367338a855.16",
      "title": "Богословское кладбище. Постороннимвход воспрещён.",
      "latlng": {
        "lat": 59.987301,
        "lng": 30.399943
      }
    },
    {
      "id": "ab16f2a0703c4d139b21d9a797822925.16",
      "title": "Трусов и Рэкк",
      "latlng": {
        "lat": 59.989917,
        "lng": 30.397682
      }
    },
    {
      "id": "d15b0cdf2532467092a2b1b1aed50961.16",
      "title": "Зоя Бурова",
      "latlng": {
        "lat": 59.990573,
        "lng": 30.392936
      }
    },
    {
      "id": "a8471139cc1a49f7ba5106fabff250d8.16",
      "title": "Letum",
      "latlng": {
        "lat": 59.989461,
        "lng": 30.402417
      }
    },
    {
      "id": "2f921266b14c45eb9701be60bbbb2741.16",
      "title": "Старая могила",
      "latlng": {
        "lat": 59.990439,
        "lng": 30.392621
      }
    },
    {
      "id": "a314355fc6a24684b5a80bb6dbcab6f9.16",
      "title": "Купалов",
      "latlng": {
        "lat": 59.987952,
        "lng": 30.390491
      }
    },
    {
      "id": "2e3b62c34fba4fe7863fe4d60444e409.16",
      "title": "Демченко",
      "latlng": {
        "lat": 59.989071,
        "lng": 30.401197
      }
    },
    {
      "id": "9d3098aaa0e74a579ea3554c4567d952.16",
      "title": "Монумент Скорби",
      "latlng": {
        "lat": 59.989747,
        "lng": 30.398956
      }
    },
    {
      "id": "aac3b2775ab14a80b34d5452aaae175b.16",
      "title": "Вера Похитонова",
      "latlng": {
        "lat": 59.989726,
        "lng": 30.3901
      }
    },
    {
      "id": "bb77a342c3b44ca7bc060ed6f0072c66.16",
      "title": "Лётчик Бабаев",
      "latlng": {
        "lat": 59.987778,
        "lng": 30.397833
      }
    },
    {
      "id": "746ebc29fa7e487eaaaed8923f567b53.16",
      "title": "Бубновы",
      "latlng": {
        "lat": 59.98851,
        "lng": 30.398916
      }
    },
    {
      "id": "9a25082ab98d44a6b24ad2373456f638.16",
      "title": "Васьковский",
      "latlng": {
        "lat": 59.988341,
        "lng": 30.400869
      }
    },
    {
      "id": "1ffd1ec4082b4acd8f4bec30b580d57a.16",
      "title": "Оплакивающая",
      "latlng": {
        "lat": 59.989714,
        "lng": 30.401196
      }
    },
    {
      "id": "40deea3dd1734d0db877458602eaacf7.16",
      "title": "Агафонов",
      "latlng": {
        "lat": 59.989555,
        "lng": 30.389419
      }
    },
    {
      "id": "05d79ded7c18494fb3a92ccd188344a7.16",
      "title": "Николай Никитин",
      "latlng": {
        "lat": 59.989,
        "lng": 30.394254
      }
    }
  ],
  "links": [
    {
      "name": "Огневая Точка 1941-1945 - Обелиск Памяти Защитникам Ленинграда",
      "from": "b7498001ee914be28d32be555ad2874a.16",
      "to": "718babf199ac46a98d3e770a1c9547e4.16",
      "isReverse": false
    },
    {
      "name": "Обелиск Памяти Защитникам Ленинграда - Богословское кладбище. Постороннимвход воспрещён.",
      "from": "718babf199ac46a98d3e770a1c9547e4.16",
      "to": "b3fa517a3ee74236ace513367338a855.16",
      "isReverse": false
    },
    {
      "name": "Богословское кладбище. Постороннимвход воспрещён. - Огневая Точка 1941-1945",
      "from": "b3fa517a3ee74236ace513367338a855.16",
      "to": "b7498001ee914be28d32be555ad2874a.16",
      "isReverse": false
    }
  ]
}
